[
  {
    "id": 1,
    "source": "OpenWeatherAPI",
    "lat": "42.73",
    "lon": "-73.69",
    "city": "Troy",
    "country": "US",
    "temp": 39.27,
    "feels_like": 39.27,
    "humidity": 80,
    "wind_speed": 1.99,
    "desc": "overcast clouds"
  },
  {
    "id": 2,
    "source": "Foreca",
    "lat": "42.73",
    "lon": "-73.69",
    "city": "Troy",
    "country": "United States",
    "temp": 41,
    "feels_like": 41,
    "humidity": 70,
    "wind_speed": 1,
    "desc": "overcast"
  },
  {
    "id": 3,
    "source": "Weatherbit",
    "lat": "42.73",
    "lon": "-73.69",
    "city": "Troy",
    "country": "US",
    "temp": 37.4,
    "feels_like": 35,
    "humidity": 79,
    "wind_speed": 3.4,
    "desc": "Overcast clouds"
  },
  {
    "id": 4,
    "source": "OpenWeatherAPI",
    "lat": "34.28",
    "lon": "69.11",
    "city": "Nāz̧ir Kalā",
    "country": "AF",
    "temp": 57.02,
    "feels_like": 54.01,
    "humidity": 34,
    "wind_speed": 4.72,
    "desc": "overcast clouds"
  },
  {
    "id": 5,
    "source": "Foreca",
    "lat": "34.28",
    "lon": "69.11",
    "city": "Kabul",
    "country": "Afghanistan",
    "temp": 56,
    "feels_like": 56,
    "humidity": 78,
    "wind_speed": 1,
    "desc": "showers"
  },
  {
    "id": 6,
    "source": "Weatherbit",
    "lat": "34.28",
    "lon": "69.11",
    "city": "Kabul",
    "country": "AF",
    "temp": 54.6,
    "feels_like": 54.6,
    "humidity": 32,
    "wind_speed": 5.8,
    "desc": "Overcast clouds"
  },
  {
    "id": 7,
    "source": "OpenWeatherAPI",
    "lat": "41.18",
    "lon": "19.49",
    "city": "Rrakull",
    "country": "AL",
    "temp": 66.6,
    "feels_like": 66.11,
    "humidity": 67,
    "wind_speed": 7.4,
    "desc": "clear sky"
  },
  {
    "id": 8,
    "source": "Foreca",
    "lat": "41.18",
    "lon": "19.49",
    "city": "Kavajë",
    "country": "Albania",
    "temp": 71,
    "feels_like": 71,
    "humidity": 67,
    "wind_speed": 3,
    "desc": "clear"
  },
  {
    "id": 9,
    "source": "Weatherbit",
    "lat": "41.18",
    "lon": "19.49",
    "city": "Kavajë",
    "country": "AL",
    "temp": 69.8,
    "feels_like": 68.5,
    "humidity": 42,
    "wind_speed": 9.2,
    "desc": "Clear sky"
  },
  {
    "id": 10,
    "source": "OpenWeatherAPI",
    "lat": "-36.30",
    "lon": "-60.00",
    "city": "Tapalqué",
    "country": "AR",
    "temp": 65.75,
    "feels_like": 65.12,
    "humidity": 66,
    "wind_speed": 8.84,
    "desc": "clear sky"
  },
  {
    "id": 11,
    "source": "Foreca",
    "lat": "-36.30",
    "lon": "-60.00",
    "city": "Azul",
    "country": "Argentina",
    "temp": 65,
    "feels_like": 65,
    "humidity": 64,
    "wind_speed": 5,
    "desc": "partly cloudy"
  },
  {
    "id": 12,
    "source": "Weatherbit",
    "lat": "-36.30",
    "lon": "-60.00",
    "city": "Azul",
    "country": "AR",
    "temp": 64.3,
    "feels_like": 64.3,
    "humidity": 65,
    "wind_speed": 8.8,
    "desc": "Clear sky"
  },
  {
    "id": 13,
    "source": "OpenWeatherAPI",
    "lat": "-34.6051",
    "lon": "-58.4004",
    "city": "Congreso",
    "country": "AR",
    "temp": 67.21,
    "feels_like": 66.83,
    "humidity": 68,
    "wind_speed": 23,
    "desc": "scattered clouds"
  },
  {
    "id": 14,
    "source": "Foreca",
    "lat": "-34.6051",
    "lon": "-58.4004",
    "city": "Buenos Aires",
    "country": "Argentina",
    "temp": 68,
    "feels_like": 68,
    "humidity": 64,
    "wind_speed": 4,
    "desc": "mostly clear"
  },
  {
    "id": 15,
    "source": "Weatherbit",
    "lat": "-34.6051",
    "lon": "-58.4004",
    "city": "Buenos Aires",
    "country": "AR",
    "temp": 67.8,
    "feels_like": 67.4,
    "humidity": 65,
    "wind_speed": 6.9,
    "desc": "Clear sky"
  },
  {
    "id": 16,
    "source": "OpenWeatherAPI",
    "lat": "-35.2835",
    "lon": "149.1281",
    "city": "Canberra",
    "country": "AU",
    "temp": 51.13,
    "feels_like": 49.75,
    "humidity": 81,
    "wind_speed": 5.75,
    "desc": "clear sky"
  },
  {
    "id": 17,
    "source": "Foreca",
    "lat": "-35.2835",
    "lon": "149.1281",
    "city": "Canberra",
    "country": "Australia",
    "temp": 50,
    "feels_like": 50,
    "humidity": 82,
    "wind_speed": 2,
    "desc": "clear"
  },
  {
    "id": 18,
    "source": "Weatherbit",
    "lat": "-35.2835",
    "lon": "149.1281",
    "city": "Canberra",
    "country": "AU",
    "temp": 50,
    "feels_like": 50,
    "humidity": 70,
    "wind_speed": 6.9,
    "desc": "Scattered clouds"
  },
  {
    "id": 19,
    "source": "OpenWeatherAPI",
    "lat": "48.2064",
    "lon": "16.3707",
    "city": "Vienna",
    "country": "AT",
    "temp": 60.39,
    "feels_like": 58.39,
    "humidity": 48,
    "wind_speed": 21.99,
    "desc": "scattered clouds"
  },
  {
    "id": 20,
    "source": "Foreca",
    "lat": "48.2064",
    "lon": "16.3707",
    "city": "Vienna",
    "country": "Austria",
    "temp": 60,
    "feels_like": 60,
    "humidity": 46,
    "wind_speed": 7,
    "desc": "partly cloudy"
  },
  {
    "id": 21,
    "source": "Weatherbit",
    "lat": "48.2064",
    "lon": "16.3707",
    "city": "Neuer Markt",
    "country": "AT",
    "temp": 58,
    "feels_like": 58,
    "humidity": 45,
    "wind_speed": 15,
    "desc": "Scattered clouds"
  },
  {
    "id": 22,
    "source": "OpenWeatherAPI",
    "lat": "40.3777",
    "lon": "49.8920",
    "city": "Baku",
    "country": "AZ",
    "temp": 59.05,
    "feels_like": 57.61,
    "humidity": 63,
    "wind_speed": 16.11,
    "desc": "clear sky"
  },
  {
    "id": 23,
    "source": "Foreca",
    "lat": "40.3777",
    "lon": "49.8920",
    "city": "Baku",
    "country": "Azerbaijan",
    "temp": 57,
    "feels_like": 57,
    "humidity": 83,
    "wind_speed": 4,
    "desc": "clear"
  },
  {
    "id": 24,
    "source": "Weatherbit",
    "lat": "40.3777",
    "lon": "49.8920",
    "city": "Baku",
    "country": "AZ",
    "temp": 60.8,
    "feels_like": 60.7,
    "humidity": 51,
    "wind_speed": 13.9,
    "desc": "Clear sky"
  },
  {
    "id": 25,
    "source": "OpenWeatherAPI",
    "lat": "25.0582",
    "lon": "-77.3431",
    "city": "Nassau",
    "country": "BS",
    "temp": 76.98,
    "feels_like": 77.63,
    "humidity": 69,
    "wind_speed": 11.5,
    "desc": "scattered clouds"
  },
  {
    "id": 26,
    "source": "Foreca",
    "lat": "25.0582",
    "lon": "-77.3431",
    "city": "Nassau",
    "country": "Bahamas",
    "temp": 78,
    "feels_like": 78,
    "humidity": 64,
    "wind_speed": 5,
    "desc": "mostly clear"
  },
  {
    "id": 27,
    "source": "Weatherbit",
    "lat": "25.0582",
    "lon": "-77.3431",
    "city": "Nassau",
    "country": "BS",
    "temp": 75.7,
    "feels_like": 76.6,
    "humidity": 76,
    "wind_speed": 13,
    "desc": "Few clouds"
  },
  {
    "id": 28,
    "source": "OpenWeatherAPI",
    "lat": "13.1000",
    "lon": "-59.6167",
    "city": "Deacons",
    "country": "BB",
    "temp": 82.89,
    "feels_like": 90.41,
    "humidity": 78,
    "wind_speed": 17.27,
    "desc": "light rain"
  },
  {
    "id": 29,
    "source": "Foreca",
    "lat": "13.1000",
    "lon": "-59.6167",
    "city": "Bridgetown",
    "country": "Barbados",
    "temp": 85,
    "feels_like": 91,
    "humidity": 64,
    "wind_speed": 7,
    "desc": "cloudy"
  },
  {
    "id": 30,
    "source": "Weatherbit",
    "lat": "13.1000",
    "lon": "-59.6167",
    "city": "Bridgetown",
    "country": "BB",
    "temp": 82.9,
    "feels_like": 90.5,
    "humidity": 78,
    "wind_speed": 17.3,
    "desc": "Drizzle"
  },
  {
    "id": 31,
    "source": "OpenWeatherAPI",
    "lat": "53.9000",
    "lon": "27.5667",
    "city": "Minsk City",
    "country": "BY",
    "temp": 78.55,
    "feels_like": 77.94,
    "humidity": 39,
    "wind_speed": 6.46,
    "desc": "overcast clouds"
  },
  {
    "id": 32,
    "source": "Foreca",
    "lat": "53.9000",
    "lon": "27.5667",
    "city": "Minsk",
    "country": "Belarus",
    "temp": 78,
    "feels_like": 78,
    "humidity": 53,
    "wind_speed": 4,
    "desc": "cloudy"
  },
  {
    "id": 33,
    "source": "Weatherbit",
    "lat": "53.9000",
    "lon": "27.5667",
    "city": "Minsk",
    "country": "BY",
    "temp": 74.8,
    "feels_like": 73.8,
    "humidity": 37,
    "wind_speed": 2.3,
    "desc": "Overcast clouds"
  },
  {
    "id": 34,
    "source": "OpenWeatherAPI",
    "lat": "50.8467",
    "lon": "4.3499",
    "city": "City of Brussels",
    "country": "BE",
    "temp": 53.58,
    "feels_like": 52.45,
    "humidity": 81,
    "wind_speed": 17.27,
    "desc": "broken clouds"
  },
  {
    "id": 35,
    "source": "Foreca",
    "lat": "50.8467",
    "lon": "4.3499",
    "city": "Brussels",
    "country": "Belgium",
    "temp": 53,
    "feels_like": 53,
    "humidity": 68,
    "wind_speed": 9,
    "desc": "light rain"
  },
  {
    "id": 36,
    "source": "Weatherbit",
    "lat": "50.8467",
    "lon": "4.3499",
    "city": "Brussels",
    "country": "BE",
    "temp": 53,
    "feels_like": 53,
    "humidity": 67,
    "wind_speed": 13.8,
    "desc": "Scattered clouds"
  },
  {
    "id": 37,
    "source": "OpenWeatherAPI",
    "lat": "32.2915",
    "lon": "-64.7780",
    "city": "Hamilton city",
    "country": "BM",
    "temp": 68.88,
    "feels_like": 69.6,
    "humidity": 88,
    "wind_speed": 24.16,
    "desc": "broken clouds"
  },
  {
    "id": 38,
    "source": "Foreca",
    "lat": "32.2915",
    "lon": "-64.7780",
    "city": "Hamilton",
    "country": "Bermuda",
    "temp": 71,
    "feels_like": 71,
    "humidity": 92,
    "wind_speed": 11,
    "desc": "light rain"
  },
  {
    "id": 39,
    "source": "Weatherbit",
    "lat": "32.2915",
    "lon": "-64.7780",
    "city": "Hamilton",
    "country": "BM",
    "temp": 69,
    "feels_like": 69.7,
    "humidity": 88,
    "wind_speed": 21.9,
    "desc": "Clear sky"
  },
  {
    "id": 40,
    "source": "OpenWeatherAPI",
    "lat": "-15.7797\t",
    "lon": "-47.9297",
    "city": "Brasília",
    "country": "BR",
    "temp": 77.92,
    "feels_like": 78.46,
    "humidity": 65,
    "wind_speed": 5.75,
    "desc": "broken clouds"
  },
  {
    "id": 41,
    "source": "Foreca",
    "lat": "-15.7797",
    "lon": "-47.9297",
    "city": "Brasília",
    "country": "Brazil",
    "temp": 78,
    "feels_like": 78,
    "humidity": 72,
    "wind_speed": 0,
    "desc": "thunderstorms"
  },
  {
    "id": 42,
    "source": "Weatherbit",
    "lat": "-15.7797",
    "lon": "-47.9297",
    "city": "Brasília",
    "country": "BR",
    "temp": 78.8,
    "feels_like": 79.4,
    "humidity": 65,
    "wind_speed": 5.8,
    "desc": "Scattered clouds"
  },
  {
    "id": 43,
    "source": "OpenWeatherAPI",
    "lat": "18.4167",
    "lon": "-64.6167",
    "city": "Road Town",
    "country": "VG",
    "temp": 82.44,
    "feels_like": 87.03,
    "humidity": 69,
    "wind_speed": 13.8,
    "desc": "light rain"
  },
  {
    "id": 44,
    "source": "Foreca",
    "lat": "18.4167",
    "lon": "-64.6167",
    "city": "Road Town",
    "country": "British Virgin Islands",
    "temp": 82,
    "feels_like": 87,
    "humidity": 77,
    "wind_speed": 10,
    "desc": "light rain"
  },
  {
    "id": 45,
    "source": "Weatherbit",
    "lat": "18.4167",
    "lon": "-64.6167",
    "city": "Road Town",
    "country": "VG",
    "temp": 82.9,
    "feels_like": 88.8,
    "humidity": 72,
    "wind_speed": 12,
    "desc": "Clear sky"
  },
  {
    "id": 46,
    "source": "OpenWeatherAPI",
    "lat": "42.6975",
    "lon": "23.3242",
    "city": "Sofia",
    "country": "BG",
    "temp": 69.76,
    "feels_like": 67.39,
    "humidity": 20,
    "wind_speed": 13.8,
    "desc": "clear sky"
  },
  {
    "id": 47,
    "source": "Foreca",
    "lat": "42.6975",
    "lon": "23.3242",
    "city": "Sofia",
    "country": "Bulgaria",
    "temp": 70,
    "feels_like": 70,
    "humidity": 23,
    "wind_speed": 5,
    "desc": "clear"
  },
  {
    "id": 48,
    "source": "Weatherbit",
    "lat": "42.6975",
    "lon": "23.3242",
    "city": "Sofia",
    "country": "BG",
    "temp": 71,
    "feels_like": 68.9,
    "humidity": 24,
    "wind_speed": 9.2,
    "desc": "Scattered clouds"
  },
  {
    "id": 49,
    "source": "OpenWeatherAPI",
    "lat": "19.2866",
    "lon": "-81.3744",
    "city": "George Town",
    "country": "KY",
    "temp": 82.17,
    "feels_like": 88.68,
    "humidity": 78,
    "wind_speed": 11.5,
    "desc": "broken clouds"
  },
  {
    "id": 50,
    "source": "Foreca",
    "lat": "19.2866",
    "lon": "-81.3744",
    "city": "George Town",
    "country": "Cayman Islands",
    "temp": 84,
    "feels_like": 93,
    "humidity": 77,
    "wind_speed": 7,
    "desc": "clear"
  },
  {
    "id": 51,
    "source": "Weatherbit",
    "lat": "19.2866",
    "lon": "-81.3744",
    "city": "George Town",
    "country": "KY",
    "temp": 82.4,
    "feels_like": 88.2,
    "humidity": 74,
    "wind_speed": 11.4,
    "desc": "Light rain"
  },
  {
    "id": 52,
    "source": "OpenWeatherAPI",
    "lat": "-33.4569",
    "lon": "-70.6483",
    "city": "Santiago",
    "country": "CL",
    "temp": 69.33,
    "feels_like": 67.6,
    "humidity": 35,
    "wind_speed": 4.61,
    "desc": "scattered clouds"
  },
  {
    "id": 53,
    "source": "Foreca",
    "lat": "-33.4569",
    "lon": "-70.6483",
    "city": "Santiago",
    "country": "Chile",
    "temp": 67,
    "feels_like": 67,
    "humidity": 35,
    "wind_speed": 2,
    "desc": "cloudy"
  },
  {
    "id": 54,
    "source": "Weatherbit",
    "lat": "-33.4569",
    "lon": "-70.6483",
    "city": "Santiago",
    "country": "CL",
    "temp": 63.3,
    "feels_like": 63.3,
    "humidity": 42,
    "wind_speed": 1.1,
    "desc": "Few clouds"
  },
  {
    "id": 55,
    "source": "OpenWeatherAPI",
    "lat": "39.9075",
    "lon": "116.3972",
    "city": "Beijing",
    "country": "CN",
    "temp": 58.89,
    "feels_like": 56.03,
    "humidity": 33,
    "wind_speed": 7.54,
    "desc": "overcast clouds"
  },
  {
    "id": 56,
    "source": "Foreca",
    "lat": "39.9075",
    "lon": "116.3972",
    "city": "Beijing",
    "country": "China",
    "temp": 58,
    "feels_like": 58,
    "humidity": 41,
    "wind_speed": 4,
    "desc": "overcast"
  },
  {
    "id": 57,
    "source": "Weatherbit",
    "lat": "39.9075",
    "lon": "116.3972",
    "city": "Beijing",
    "country": "CN",
    "temp": 59,
    "feels_like": 58.9,
    "humidity": 28,
    "wind_speed": 8.9,
    "desc": "Overcast clouds"
  },
  {
    "id": 58,
    "source": "OpenWeatherAPI",
    "lat": "22.2796",
    "lon": "114.1887",
    "city": "Jardines Lookout",
    "country": "HK",
    "temp": 79.41,
    "feels_like": 79.41,
    "humidity": 82,
    "wind_speed": 15.01,
    "desc": "clear sky"
  },
  {
    "id": 59,
    "source": "Foreca",
    "lat": "22.2796",
    "lon": "114.1887",
    "city": "Hong Kong",
    "country": "Hong Kong",
    "temp": 77,
    "feels_like": 77,
    "humidity": 93,
    "wind_speed": 4,
    "desc": "clear"
  },
  {
    "id": 60,
    "source": "Weatherbit",
    "lat": "22.2796",
    "lon": "114.1887",
    "city": "Hong Kong",
    "country": "HK",
    "temp": 78,
    "feels_like": 79.7,
    "humidity": 90,
    "wind_speed": 12.3,
    "desc": "Clear sky"
  },
  {
    "id": 61,
    "source": "OpenWeatherAPI",
    "lat": "9.9278",
    "lon": "-84.0807",
    "city": "San José",
    "country": "CR",
    "temp": 77.47,
    "feels_like": 76.42,
    "humidity": 32,
    "wind_speed": 10.36,
    "desc": "volcanic ash"
  },
  {
    "id": 62,
    "source": "Foreca",
    "lat": "9.9278",
    "lon": "-84.0807",
    "city": "San José",
    "country": "Costa Rica",
    "temp": 75,
    "feels_like": 75,
    "humidity": 33,
    "wind_speed": 0,
    "desc": "clear"
  },
  {
    "id": 63,
    "source": "Weatherbit",
    "lat": "9.9278",
    "lon": "-84.0807",
    "city": "San José",
    "country": "CR",
    "temp": 76,
    "feels_like": 74.5,
    "humidity": 26,
    "wind_speed": 3.3,
    "desc": "Clear sky"
  },
  {
    "id": 64,
    "source": "OpenWeatherAPI",
    "lat": "23.1195",
    "lon": "-82.3785",
    "city": "Havana",
    "country": "CU",
    "temp": 79.36,
    "feels_like": 79.36,
    "humidity": 78,
    "wind_speed": 9.22,
    "desc": "scattered clouds"
  },
  {
    "id": 65,
    "source": "Foreca",
    "lat": "23.1195",
    "lon": "-82.3785",
    "city": "Havana",
    "country": "Cuba",
    "temp": 81,
    "feels_like": 83,
    "humidity": 63,
    "wind_speed": 5,
    "desc": "clear"
  },
  {
    "id": 66,
    "source": "Weatherbit",
    "lat": "23.1195",
    "lon": "-82.3785",
    "city": "Havana",
    "country": "CU",
    "temp": 78.8,
    "feels_like": 81.6,
    "humidity": 78,
    "wind_speed": 9.2,
    "desc": "Clear sky"
  },
  {
    "id": 67,
    "source": "OpenWeatherAPI",
    "lat": "50.0880",
    "lon": "14.4208",
    "city": "Old Town",
    "country": "CZ",
    "temp": 57.96,
    "feels_like": 55.71,
    "humidity": 48,
    "wind_speed": 23.02,
    "desc": "broken clouds"
  },
  {
    "id": 68,
    "source": "Foreca",
    "lat": "50.0880",
    "lon": "14.4208",
    "city": "Prague",
    "country": "Czech Republic",
    "temp": 57,
    "feels_like": 57,
    "humidity": 48,
    "wind_speed": 8,
    "desc": "cloudy"
  },
  {
    "id": 69,
    "source": "Weatherbit",
    "lat": "50.0880",
    "lon": "14.4208",
    "city": "Prague",
    "country": "CZ",
    "temp": 55,
    "feels_like": 55,
    "humidity": 44,
    "wind_speed": 11.5,
    "desc": "Few clouds"
  },
  {
    "id": 70,
    "source": "OpenWeatherAPI",
    "lat": "55.6759",
    "lon": "12.5655",
    "city": "Inner City",
    "country": "DK",
    "temp": 39.51,
    "feels_like": 34.59,
    "humidity": 92,
    "wind_speed": 6.91,
    "desc": "light rain"
  },
  {
    "id": 71,
    "source": "Foreca",
    "lat": "55.6759",
    "lon": "12.5655",
    "city": "Copenhagen",
    "country": "Denmark",
    "temp": 40,
    "feels_like": 33,
    "humidity": 87,
    "wind_speed": 5,
    "desc": "light rain"
  },
  {
    "id": 72,
    "source": "Weatherbit",
    "lat": "55.6759",
    "lon": "12.5655",
    "city": "Copenhagen",
    "country": "DK",
    "temp": 39,
    "feels_like": 32.3,
    "humidity": 87,
    "wind_speed": 10.4,
    "desc": "Drizzle"
  },
  {
    "id": 73,
    "source": "OpenWeatherAPI",
    "lat": "11.5877",
    "lon": "43.1447",
    "city": "Djibouti",
    "country": "DJ",
    "temp": 82.65,
    "feels_like": 89.55,
    "humidity": 77,
    "wind_speed": 10.69,
    "desc": "scattered clouds"
  },
  {
    "id": 74,
    "source": "Foreca",
    "lat": "11.5877",
    "lon": "43.1447",
    "city": "Djibouti",
    "country": "Djibouti",
    "temp": 85,
    "feels_like": 96,
    "humidity": 76,
    "wind_speed": 4,
    "desc": "partly cloudy"
  },
  {
    "id": 75,
    "source": "Weatherbit",
    "lat": "11.5877",
    "lon": "43.1447",
    "city": "Djibouti",
    "country": "DJ",
    "temp": 81,
    "feels_like": 85.2,
    "humidity": 73,
    "wind_speed": 11.7,
    "desc": "Clear sky"
  },
  {
    "id": 76,
    "source": "OpenWeatherAPI",
    "lat": "18.4896",
    "lon": "-69.9018",
    "city": "Villa María",
    "country": "DO",
    "temp": 81.36,
    "feels_like": 85.64,
    "humidity": 72,
    "wind_speed": 5.75,
    "desc": "scattered clouds"
  },
  {
    "id": 77,
    "source": "Foreca",
    "lat": "18.4896",
    "lon": "-69.9018",
    "city": "Santo Domingo",
    "country": "Dominican Republic",
    "temp": 84,
    "feels_like": 88,
    "humidity": 62,
    "wind_speed": 3,
    "desc": "light rain"
  },
  {
    "id": 78,
    "source": "Weatherbit",
    "lat": "18.4896",
    "lon": "-69.9018",
    "city": "Villa Consuelo",
    "country": "DO",
    "temp": 78.8,
    "feels_like": 79.8,
    "humidity": 73,
    "wind_speed": 5.7,
    "desc": "Clear sky"
  },
  {
    "id": 79,
    "source": "OpenWeatherAPI",
    "lat": "30.0392",
    "lon": "31.2394",
    "city": "Al ‘Atabah",
    "country": "EG",
    "temp": 86.72,
    "feels_like": 84.43,
    "humidity": 30,
    "wind_speed": 17.27,
    "desc": "clear sky"
  },
  {
    "id": 80,
    "source": "Foreca",
    "lat": "30.0392",
    "lon": "31.2394",
    "city": "Cairo",
    "country": "Egypt",
    "temp": 88,
    "feels_like": 88,
    "humidity": 18,
    "wind_speed": 5,
    "desc": "clear"
  },
  {
    "id": 81,
    "source": "Weatherbit",
    "lat": "30.0392",
    "lon": "31.2394",
    "city": "Cairo",
    "country": "EG",
    "temp": 91.1,
    "feels_like": 87.5,
    "humidity": 21,
    "wind_speed": 8.8,
    "desc": "Clear sky"
  },
  {
    "id": 82,
    "source": "OpenWeatherAPI",
    "lat": "13.6894",
    "lon": "-89.1872",
    "city": "San Salvador",
    "country": "SV",
    "temp": 80.87,
    "feels_like": 87.69,
    "humidity": 88,
    "wind_speed": 1.61,
    "desc": "clear sky"
  },
  {
    "id": 83,
    "source": "Foreca",
    "lat": "13.6894",
    "lon": "-89.1872",
    "city": "San Salvador",
    "country": "El Salvador",
    "temp": 81,
    "feels_like": 82,
    "humidity": 53,
    "wind_speed": 2,
    "desc": "clear"
  },
  {
    "id": 84,
    "source": "Weatherbit",
    "lat": "13.6894",
    "lon": "-89.1872",
    "city": "San Salvador",
    "country": "SV",
    "temp": 76,
    "feels_like": 76.1,
    "humidity": 60,
    "wind_speed": 1.2,
    "desc": "Clear sky"
  },
  {
    "id": 85,
    "source": "OpenWeatherAPI",
    "lat": "3.7500",
    "lon": "8.7833",
    "city": "Malabo",
    "country": "GQ",
    "temp": 91.26,
    "feels_like": 103.86,
    "humidity": 70,
    "wind_speed": 9.22,
    "desc": "light rain"
  },
  {
    "id": 86,
    "source": "Foreca",
    "lat": "3.7500",
    "lon": "8.7833",
    "city": "Malabo",
    "country": "Equatorial Guinea",
    "temp": 87,
    "feels_like": 104,
    "humidity": 83,
    "wind_speed": 2,
    "desc": "light rain"
  },
  {
    "id": 87,
    "source": "Weatherbit",
    "lat": "3.7500",
    "lon": "8.7833",
    "city": "Malabo",
    "country": "GQ",
    "temp": 91.4,
    "feels_like": 110.2,
    "humidity": 70,
    "wind_speed": 9.2,
    "desc": "Clear sky"
  },
  {
    "id": 88,
    "source": "OpenWeatherAPI",
    "lat": "60.1692",
    "lon": "24.9402",
    "city": "Helsinki",
    "country": "FI",
    "temp": 36.45,
    "feels_like": 25.32,
    "humidity": 91,
    "wind_speed": 21.99,
    "desc": "light rain"
  },
  {
    "id": 89,
    "source": "Foreca",
    "lat": "60.1692",
    "lon": "24.9402",
    "city": "Helsinki",
    "country": "Finland",
    "temp": 36,
    "feels_like": 26,
    "humidity": 91,
    "wind_speed": 8,
    "desc": "rain"
  },
  {
    "id": 90,
    "source": "Weatherbit",
    "lat": "60.1692",
    "lon": "24.9402",
    "city": "Helsinki",
    "country": "FI",
    "temp": 38,
    "feels_like": 28,
    "humidity": 100,
    "wind_speed": 19.6,
    "desc": "Overcast clouds"
  },
  {
    "id": 91,
    "source": "OpenWeatherAPI",
    "lat": "48.8534",
    "lon": "2.3488",
    "city": "Paris",
    "country": "FR",
    "temp": 56.12,
    "feels_like": 54.86,
    "humidity": 73,
    "wind_speed": 14.97,
    "desc": "broken clouds"
  },
  {
    "id": 92,
    "source": "Foreca",
    "lat": "48.8534",
    "lon": "2.3488",
    "city": "Paris",
    "country": "France",
    "temp": 56,
    "feels_like": 56,
    "humidity": 72,
    "wind_speed": 7,
    "desc": "light rain"
  },
  {
    "id": 93,
    "source": "Weatherbit",
    "lat": "48.8534",
    "lon": "2.3488",
    "city": "Paris",
    "country": "FR",
    "temp": 57,
    "feels_like": 57,
    "humidity": 71,
    "wind_speed": 15,
    "desc": "Broken clouds"
  },
  {
    "id": 94,
    "source": "OpenWeatherAPI",
    "lat": "4.9333",
    "lon": "-52.3333",
    "city": "Cayenne",
    "country": "GF",
    "temp": 86.04,
    "feels_like": 96.96,
    "humidity": 74,
    "wind_speed": 10.36,
    "desc": "light rain"
  },
  {
    "id": 95,
    "source": "Foreca",
    "lat": "4.9333",
    "lon": "-52.3333",
    "city": "Cayenne",
    "country": "France",
    "temp": 85,
    "feels_like": 96,
    "humidity": 75,
    "wind_speed": 5,
    "desc": "showers"
  },
  {
    "id": 96,
    "source": "Weatherbit",
    "lat": "4.9333",
    "lon": "-52.3333",
    "city": "Cayenne",
    "country": "GF",
    "temp": 86,
    "feels_like": 96.9,
    "humidity": 74,
    "wind_speed": 10.3,
    "desc": "Overcast clouds"
  },
  {
    "id": 97,
    "source": "OpenWeatherAPI",
    "lat": "0.3925",
    "lon": "9.4537",
    "city": "Libreville",
    "country": "GA",
    "temp": 89.62,
    "feels_like": 102.22,
    "humidity": 70,
    "wind_speed": 10.36,
    "desc": "light rain"
  },
  {
    "id": 98,
    "source": "Foreca",
    "lat": "0.3925",
    "lon": "9.4537",
    "city": "Libreville",
    "country": "Gabon",
    "temp": 90,
    "feels_like": 108,
    "humidity": 71,
    "wind_speed": 3,
    "desc": "cloudy"
  },
  {
    "id": 99,
    "source": "Weatherbit",
    "lat": "0.3925",
    "lon": "9.4537",
    "city": "Libreville",
    "country": "GA",
    "temp": 89.6,
    "feels_like": 104.8,
    "humidity": 70,
    "wind_speed": 10.3,
    "desc": "Clear sky"
  },
  {
    "id": 100,
    "source": "OpenWeatherAPI",
    "lat": "52.5244",
    "lon": "13.4105",
    "city": "Berlin",
    "country": "DE",
    "temp": 56.44,
    "feels_like": 55.13,
    "humidity": 71,
    "wind_speed": 20.71,
    "desc": "scattered clouds"
  },
  {
    "id": 101,
    "source": "Foreca",
    "lat": "52.5244",
    "lon": "13.4105",
    "city": "Berlin",
    "country": "Germany",
    "temp": 55,
    "feels_like": 55,
    "humidity": 68,
    "wind_speed": 9,
    "desc": "light rain"
  },
  {
    "id": 102,
    "source": "Weatherbit",
    "lat": "52.5244",
    "lon": "13.4105",
    "city": "Berlin",
    "country": "DE",
    "temp": 54,
    "feels_like": 54,
    "humidity": 57,
    "wind_speed": 15,
    "desc": "Broken clouds"
  },
  {
    "id": 103,
    "source": "OpenWeatherAPI",
    "lat": "36.1447",
    "lon": "-5.3526",
    "city": "Gibraltar",
    "country": "GI",
    "temp": 64.35,
    "feels_like": 63.25,
    "humidity": 59,
    "wind_speed": 6.91,
    "desc": "clear sky"
  },
  {
    "id": 104,
    "source": "Foreca",
    "lat": "36.1447",
    "lon": "-5.3526",
    "city": "Gibraltar",
    "country": "Gibraltar",
    "temp": 65,
    "feels_like": 65,
    "humidity": 57,
    "wind_speed": 3,
    "desc": "clear"
  },
  {
    "id": 105,
    "source": "Weatherbit",
    "lat": "36.1447",
    "lon": "-5.3526",
    "city": "Gibraltar",
    "country": "GI",
    "temp": 64.4,
    "feels_like": 64.3,
    "humidity": 59,
    "wind_speed": 6.9,
    "desc": "Clear sky"
  },
  {
    "id": 106,
    "source": "OpenWeatherAPI",
    "lat": "37.9534",
    "lon": "23.7490",
    "city": "Ymittos",
    "country": "GR",
    "temp": 76.51,
    "feels_like": 75.85,
    "humidity": 42,
    "wind_speed": 11.5,
    "desc": "few clouds"
  },
  {
    "id": 107,
    "source": "Foreca",
    "lat": "37.9534",
    "lon": "23.7490",
    "city": "Výronas",
    "country": "Greece",
    "temp": 78,
    "feels_like": 78,
    "humidity": 41,
    "wind_speed": 2,
    "desc": "mostly clear"
  },
  {
    "id": 108,
    "source": "Weatherbit",
    "lat": "37.9534",
    "lon": "23.7490",
    "city": "Ymittos",
    "country": "GR",
    "temp": 76,
    "feels_like": 75.2,
    "humidity": 40,
    "wind_speed": 5.7,
    "desc": "Broken clouds"
  },
  {
    "id": 109,
    "source": "OpenWeatherAPI",
    "lat": "64.1835",
    "lon": "-51.7216",
    "city": "Nuuk",
    "country": "GL",
    "temp": 29.01,
    "feels_like": 18.23,
    "humidity": 86,
    "wind_speed": 13.8,
    "desc": "few clouds"
  },
  {
    "id": 110,
    "source": "Foreca",
    "lat": "64.1835",
    "lon": "-51.7216",
    "city": "Nuuk",
    "country": "Greenland",
    "temp": 30,
    "feels_like": 22,
    "humidity": 87,
    "wind_speed": 5,
    "desc": "mostly clear"
  },
  {
    "id": 111,
    "source": "Weatherbit",
    "lat": "64.1835",
    "lon": "-51.7216",
    "city": "Nuuk",
    "country": "GL",
    "temp": 28.4,
    "feels_like": 17.5,
    "humidity": 86,
    "wind_speed": 13.9,
    "desc": "Clear sky"
  },
  {
    "id": 112,
    "source": "OpenWeatherAPI",
    "lat": "12.0564",
    "lon": "-61.7485",
    "city": "St. George's",
    "country": "GD",
    "temp": 89.28,
    "feels_like": 99.05,
    "humidity": 62,
    "wind_speed": 16.11,
    "desc": "light rain"
  },
  {
    "id": 113,
    "source": "Foreca",
    "lat": "12.0564",
    "lon": "-61.7485",
    "city": "St. George's",
    "country": "Grenada",
    "temp": 86,
    "feels_like": 99,
    "humidity": 78,
    "wind_speed": 7,
    "desc": "cloudy"
  },
  {
    "id": 114,
    "source": "Weatherbit",
    "lat": "12.0564",
    "lon": "-61.7485",
    "city": "Saint George's",
    "country": "GD",
    "temp": 89.6,
    "feels_like": 99.8,
    "humidity": 62,
    "wind_speed": 16.1,
    "desc": "Clear sky"
  },
  {
    "id": 115,
    "source": "OpenWeatherAPI",
    "lat": "15.9985",
    "lon": "-61.7255",
    "city": "Basse-Terre",
    "country": "GP",
    "temp": 80.08,
    "feels_like": 83.08,
    "humidity": 70,
    "wind_speed": 9.73,
    "desc": "light rain"
  },
  {
    "id": 116,
    "source": "Foreca",
    "lat": "15.9985",
    "lon": "-61.7255",
    "city": "Basse-Terre",
    "country": "Guadeloupe",
    "temp": 80,
    "feels_like": 83,
    "humidity": 71,
    "wind_speed": 5,
    "desc": "light rain"
  },
  {
    "id": 117,
    "source": "Weatherbit",
    "lat": "15.9985",
    "lon": "-61.7255",
    "city": "Basse-Terre",
    "country": "GP",
    "temp": 78.9,
    "feels_like": 79.7,
    "humidity": 69,
    "wind_speed": 12.1,
    "desc": "Light rain"
  },
  {
    "id": 118,
    "source": "OpenWeatherAPI",
    "lat": "13.4757",
    "lon": "144.7489",
    "city": "Hagåtña",
    "country": "GU",
    "temp": 79.29,
    "feels_like": 79.29,
    "humidity": 87,
    "wind_speed": 9.22,
    "desc": "few clouds"
  },
  {
    "id": 119,
    "source": "Foreca",
    "lat": "13.4757",
    "lon": "144.7489",
    "city": "Hagåtña",
    "country": "United States",
    "temp": 80,
    "feels_like": 80,
    "humidity": 85,
    "wind_speed": 5,
    "desc": "mostly clear"
  },
  {
    "id": 120,
    "source": "Weatherbit",
    "lat": "13.4757",
    "lon": "144.7489",
    "city": "Hagåtña",
    "country": "GU",
    "temp": 79,
    "feels_like": 80.7,
    "humidity": 87,
    "wind_speed": 15.9,
    "desc": "Clear sky"
  },
  {
    "id": 121,
    "source": "OpenWeatherAPI",
    "lat": "14.6127",
    "lon": "-90.5307",
    "city": "Guatemala City",
    "country": "GT",
    "temp": 69.24,
    "feels_like": 69.53,
    "humidity": 78,
    "wind_speed": 6.91,
    "desc": "haze"
  },
  {
    "id": 122,
    "source": "Foreca",
    "lat": "14.6127",
    "lon": "-90.5307",
    "city": "Guatemala City",
    "country": "Guatemala",
    "temp": 72,
    "feels_like": 72,
    "humidity": 62,
    "wind_speed": 4,
    "desc": "clear"
  },
  {
    "id": 123,
    "source": "Weatherbit",
    "lat": "14.6127",
    "lon": "-90.5307",
    "city": "Guatemala City",
    "country": "GT",
    "temp": 88.3,
    "feels_like": 94.5,
    "humidity": 57,
    "wind_speed": 3.4,
    "desc": "Clear sky"
  },
  {
    "id": 124,
    "source": "OpenWeatherAPI",
    "lat": "11.8636",
    "lon": "-15.5977",
    "city": "Bissau",
    "country": "GW",
    "temp": 100.51,
    "feels_like": 100.38,
    "humidity": 25,
    "wind_speed": 6.91,
    "desc": "scattered clouds"
  },
  {
    "id": 125,
    "source": "Foreca",
    "lat": "11.8636",
    "lon": "-15.5977",
    "city": "Bissau",
    "country": "Guinea-Bissau",
    "temp": 98,
    "feels_like": 103,
    "humidity": 36,
    "wind_speed": 3,
    "desc": "clear"
  },
  {
    "id": 126,
    "source": "Weatherbit",
    "lat": "11.8636",
    "lon": "-15.5977",
    "city": "Bissau",
    "country": "GW",
    "temp": 100.4,
    "feels_like": 100.1,
    "humidity": 25,
    "wind_speed": 6.9,
    "desc": "Clear sky"
  },
  {
    "id": 127,
    "source": "OpenWeatherAPI",
    "lat": "6.8045",
    "lon": "-58.1553",
    "city": "Georgetown",
    "country": "GY",
    "temp": 87.78,
    "feels_like": 99.63,
    "humidity": 70,
    "wind_speed": 11.5,
    "desc": "broken clouds"
  },
  {
    "id": 128,
    "source": "Foreca",
    "lat": "6.8045",
    "lon": "-58.1553",
    "city": "Georgetown",
    "country": "Guyana",
    "temp": 90,
    "feels_like": 100,
    "humidity": 62,
    "wind_speed": 4,
    "desc": "light rain"
  },
  {
    "id": 129,
    "source": "Weatherbit",
    "lat": "6.8045",
    "lon": "-58.1553",
    "city": "Georgetown",
    "country": "GY",
    "temp": 87.8,
    "feels_like": 99.8,
    "humidity": 70,
    "wind_speed": 11.5,
    "desc": "Clear sky"
  },
  {
    "id": 130,
    "source": "OpenWeatherAPI",
    "lat": "41.9024",
    "lon": "12.4533",
    "city": "State of the Vatican City",
    "country": "VA",
    "temp": 64.81,
    "feels_like": 63.45,
    "humidity": 52,
    "wind_speed": 11.5,
    "desc": "clear sky"
  },
  {
    "id": 131,
    "source": "Foreca",
    "lat": "41.9024",
    "lon": "12.4533",
    "city": "Vatican",
    "country": "Vatican",
    "temp": 63,
    "feels_like": 63,
    "humidity": 51,
    "wind_speed": 4,
    "desc": "clear"
  },
  {
    "id": 132,
    "source": "Weatherbit",
    "lat": "41.9024",
    "lon": "12.4533",
    "city": "Vatican City",
    "country": "VA",
    "temp": 63.5,
    "feels_like": 63.5,
    "humidity": 54,
    "wind_speed": 9.2,
    "desc": "Clear sky"
  },
  {
    "id": 133,
    "source": "OpenWeatherAPI",
    "lat": "47.4980",
    "lon": "19.0399",
    "city": "Budapest",
    "country": "HU",
    "temp": 62.58,
    "feels_like": 60.71,
    "humidity": 46,
    "wind_speed": 21.85,
    "desc": "clear sky"
  },
  {
    "id": 134,
    "source": "Foreca",
    "lat": "47.4980",
    "lon": "19.0399",
    "city": "Budapest",
    "country": "Hungary",
    "temp": 61,
    "feels_like": 61,
    "humidity": 49,
    "wind_speed": 7,
    "desc": "mostly clear"
  },
  {
    "id": 135,
    "source": "Weatherbit",
    "lat": "47.4980",
    "lon": "19.0399",
    "city": "Budapest",
    "country": "HU",
    "temp": 61,
    "feels_like": 61,
    "humidity": 51,
    "wind_speed": 17.3,
    "desc": "Broken clouds"
  },
  {
    "id": 136,
    "source": "OpenWeatherAPI",
    "lat": "64.1355",
    "lon": "-21.8954",
    "city": "Reykjavik",
    "country": "IS",
    "temp": 40.66,
    "feels_like": 33.06,
    "humidity": 38,
    "wind_speed": 13.8,
    "desc": "broken clouds"
  },
  {
    "id": 137,
    "source": "Foreca",
    "lat": "64.1355",
    "lon": "-21.8954",
    "city": "Reykjavik",
    "country": "Iceland",
    "temp": 38,
    "feels_like": 31,
    "humidity": 48,
    "wind_speed": 5,
    "desc": "overcast"
  },
  {
    "id": 138,
    "source": "Weatherbit",
    "lat": "64.1355",
    "lon": "-21.8954",
    "city": "Reykjavík",
    "country": "IS",
    "temp": 41,
    "feels_like": 33.5,
    "humidity": 38,
    "wind_speed": 13.9,
    "desc": "Clear sky"
  },
  {
    "id": 139,
    "source": "OpenWeatherAPI",
    "lat": "28.6667",
    "lon": "77.2167",
    "city": "Delhi",
    "country": "IN",
    "temp": 82.49,
    "feels_like": 80.53,
    "humidity": 26,
    "wind_speed": 4.61,
    "desc": "haze"
  },
  {
    "id": 140,
    "source": "Foreca",
    "lat": "28.6667",
    "lon": "77.2167",
    "city": "Delhi",
    "country": "India",
    "temp": 80,
    "feels_like": 80,
    "humidity": 27,
    "wind_speed": 3,
    "desc": "cloudy"
  },
  {
    "id": 141,
    "source": "Weatherbit",
    "lat": "28.6667",
    "lon": "77.2167",
    "city": "Delhi",
    "country": "IN",
    "temp": 76.1,
    "feels_like": 75.8,
    "humidity": 50,
    "wind_speed": 1.1,
    "desc": "Haze"
  },
  {
    "id": 142,
    "source": "OpenWeatherAPI",
    "lat": "-6.2118",
    "lon": "106.8416",
    "city": "Jakarta",
    "country": "ID",
    "temp": 83.08,
    "feels_like": 91.2,
    "humidity": 79,
    "wind_speed": 0,
    "desc": "haze"
  },
  {
    "id": 143,
    "source": "Foreca",
    "lat": "-6.2118",
    "lon": "106.8416",
    "city": "Jakarta",
    "country": "Indonesia",
    "temp": 81,
    "feels_like": 92,
    "humidity": 93,
    "wind_speed": 1,
    "desc": "cloudy"
  },
  {
    "id": 144,
    "source": "Weatherbit",
    "lat": "-6.2118",
    "lon": "106.8416",
    "city": "Jakarta",
    "country": "ID",
    "temp": 82.4,
    "feels_like": 90.6,
    "humidity": 83,
    "wind_speed": 2.2,
    "desc": "Broken clouds"
  },
  {
    "id": 145,
    "source": "OpenWeatherAPI",
    "lat": "35.6944",
    "lon": "51.4215",
    "city": "Tehran",
    "country": "IR",
    "temp": 64.02,
    "feels_like": 60.93,
    "humidity": 17,
    "wind_speed": 6.91,
    "desc": "scattered clouds"
  },
  {
    "id": 146,
    "source": "Foreca",
    "lat": "35.6944",
    "lon": "51.4215",
    "city": "Tehran",
    "country": "Iran",
    "temp": 64,
    "feels_like": 64,
    "humidity": 21,
    "wind_speed": 2,
    "desc": "mostly clear"
  },
  {
    "id": 147,
    "source": "Weatherbit",
    "lat": "35.6944",
    "lon": "51.4215",
    "city": "Tehran",
    "country": "IR",
    "temp": 64.4,
    "feels_like": 64.3,
    "humidity": 17,
    "wind_speed": 6.9,
    "desc": "Clear sky"
  },
  {
    "id": 148,
    "source": "OpenWeatherAPI",
    "lat": "33.3406",
    "lon": "44.4009",
    "city": "Baghdad",
    "country": "IQ",
    "temp": 89.51,
    "feels_like": 85.51,
    "humidity": 14,
    "wind_speed": 13.8,
    "desc": "clear sky"
  },
  {
    "id": 149,
    "source": "Foreca",
    "lat": "33.3406",
    "lon": "44.4009",
    "city": "Baghdad",
    "country": "Iraq",
    "temp": 87,
    "feels_like": 87,
    "humidity": 16,
    "wind_speed": 3,
    "desc": "clear"
  },
  {
    "id": 150,
    "source": "Weatherbit",
    "lat": "33.3406",
    "lon": "44.4009",
    "city": "Baghdad",
    "country": "IQ",
    "temp": 85.6,
    "feels_like": 82.4,
    "humidity": 19,
    "wind_speed": 3.5,
    "desc": "Clear sky"
  },
  {
    "id": 151,
    "source": "OpenWeatherAPI",
    "lat": "53.3331",
    "lon": "-6.2489",
    "city": "Ranelagh",
    "country": "IE",
    "temp": 54.01,
    "feels_like": 52.79,
    "humidity": 78,
    "wind_speed": 13.8,
    "desc": "broken clouds"
  },
  {
    "id": 152,
    "source": "Foreca",
    "lat": "53.3331",
    "lon": "-6.2489",
    "city": "Dublin",
    "country": "Ireland",
    "temp": 53,
    "feels_like": 53,
    "humidity": 77,
    "wind_speed": 5,
    "desc": "cloudy"
  },
  {
    "id": 153,
    "source": "Weatherbit",
    "lat": "53.3331",
    "lon": "-6.2489",
    "city": "Dublin",
    "country": "IE",
    "temp": 59,
    "feels_like": 59,
    "humidity": 75,
    "wind_speed": 10.4,
    "desc": "Scattered clouds"
  },
  {
    "id": 154,
    "source": "OpenWeatherAPI",
    "lat": "31.7690",
    "lon": "35.2163",
    "city": "Jerusalem",
    "country": "IL",
    "temp": 78.08,
    "feels_like": 77.41,
    "humidity": 39,
    "wind_speed": 5.99,
    "desc": "clear sky"
  },
  {
    "id": 155,
    "source": "Foreca",
    "lat": "31.7690",
    "lon": "35.2163",
    "city": "Jerusalem",
    "country": "Israel",
    "temp": 77,
    "feels_like": 77,
    "humidity": 29,
    "wind_speed": 3,
    "desc": "mostly clear"
  },
  {
    "id": 156,
    "source": "Weatherbit",
    "lat": "31.7690",
    "lon": "35.2163",
    "city": "Jerusalem",
    "country": "IL",
    "temp": 78.8,
    "feels_like": 77.7,
    "humidity": 29,
    "wind_speed": 5.7,
    "desc": "Clear sky"
  },
  {
    "id": 157,
    "source": "OpenWeatherAPI",
    "lat": "41.8947",
    "lon": "12.4811",
    "city": "Rome",
    "country": "IT",
    "temp": 64.62,
    "feels_like": 63.23,
    "humidity": 52,
    "wind_speed": 11.5,
    "desc": "clear sky"
  },
  {
    "id": 158,
    "source": "Foreca",
    "lat": "41.8947",
    "lon": "12.4811",
    "city": "Vatican City",
    "country": "Vatican",
    "temp": 63,
    "feels_like": 63,
    "humidity": 56,
    "wind_speed": 4,
    "desc": "clear"
  },
  {
    "id": 159,
    "source": "Weatherbit",
    "lat": "41.8947",
    "lon": "12.4811",
    "city": "Vatican City",
    "country": "VA",
    "temp": 63.5,
    "feels_like": 63.5,
    "humidity": 54,
    "wind_speed": 9.2,
    "desc": "Clear sky"
  },
  {
    "id": 160,
    "source": "OpenWeatherAPI",
    "lat": "17.9970",
    "lon": "-76.7936",
    "city": "Kingston",
    "country": "JM",
    "temp": 85.15,
    "feels_like": 91.56,
    "humidity": 66,
    "wind_speed": 11.5,
    "desc": "few clouds"
  },
  {
    "id": 161,
    "source": "Foreca",
    "lat": "17.9970",
    "lon": "-76.7936",
    "city": "Kingston",
    "country": "Jamaica",
    "temp": 86,
    "feels_like": 94,
    "humidity": 69,
    "wind_speed": 3,
    "desc": "light rain"
  },
  {
    "id": 162,
    "source": "Weatherbit",
    "lat": "17.9970",
    "lon": "-76.7936",
    "city": "Kingston",
    "country": "JM",
    "temp": 86,
    "feels_like": 93.3,
    "humidity": 66,
    "wind_speed": 11.4,
    "desc": "Clear sky"
  },
  {
    "id": 163,
    "source": "OpenWeatherAPI",
    "lat": "35.6895",
    "lon": "139.6917",
    "city": "Tokyo",
    "country": "JP",
    "temp": 59.11,
    "feels_like": 58.1,
    "humidity": 72,
    "wind_speed": 4.61,
    "desc": "clear sky"
  },
  {
    "id": 164,
    "source": "Foreca",
    "lat": "35.6895",
    "lon": "139.6917",
    "city": "Tokyo",
    "country": "Japan",
    "temp": 57,
    "feels_like": 57,
    "humidity": 88,
    "wind_speed": 1,
    "desc": "cloudy"
  },
  {
    "id": 165,
    "source": "Weatherbit",
    "lat": "35.6895",
    "lon": "139.6917",
    "city": "Tokyo",
    "country": "JP",
    "temp": 57.2,
    "feels_like": 57.1,
    "humidity": 82,
    "wind_speed": 4.7,
    "desc": "Broken clouds"
  },
  {
    "id": 166,
    "source": "OpenWeatherAPI",
    "lat": "31.9552",
    "lon": "35.9450",
    "city": "Amman",
    "country": "JO",
    "temp": 78.89,
    "feels_like": 78.89,
    "humidity": 27,
    "wind_speed": 9.22,
    "desc": "broken clouds"
  },
  {
    "id": 167,
    "source": "Foreca",
    "lat": "31.9552",
    "lon": "35.9450",
    "city": "Amman",
    "country": "Jordan",
    "temp": 80,
    "feels_like": 80,
    "humidity": 26,
    "wind_speed": 0,
    "desc": "partly cloudy"
  },
  {
    "id": 168,
    "source": "Weatherbit",
    "lat": "31.9552",
    "lon": "35.9450",
    "city": "Amman",
    "country": "JO",
    "temp": 78.8,
    "feels_like": 77.6,
    "humidity": 27,
    "wind_speed": 9.2,
    "desc": "Broken clouds"
  },
  {
    "id": 169,
    "source": "OpenWeatherAPI",
    "lat": "51.1801",
    "lon": "71.4460",
    "city": "Nur-Sultan",
    "country": "KZ",
    "temp": 33.75,
    "feels_like": 29.61,
    "humidity": 86,
    "wind_speed": 4.47,
    "desc": "overcast clouds"
  },
  {
    "id": 170,
    "source": "Foreca",
    "lat": "51.1801",
    "lon": "71.4460",
    "city": "Nur-Sultan",
    "country": "Kazakhstan",
    "temp": 34,
    "feels_like": 31,
    "humidity": 89,
    "wind_speed": 2,
    "desc": "overcast"
  },
  {
    "id": 171,
    "source": "Weatherbit",
    "lat": "51.1801",
    "lon": "71.4460",
    "city": "Astana",
    "country": "KZ",
    "temp": 33.8,
    "feels_like": 29.7,
    "humidity": 93,
    "wind_speed": 4.5,
    "desc": "Overcast clouds"
  },
  {
    "id": 172,
    "source": "OpenWeatherAPI",
    "lat": "-1.2833",
    "lon": "36.8167",
    "city": "Nairobi",
    "country": "KE",
    "temp": 78.46,
    "feels_like": 78.26,
    "humidity": 48,
    "wind_speed": 12.66,
    "desc": "broken clouds"
  },
  {
    "id": 173,
    "source": "Foreca",
    "lat": "-1.2833",
    "lon": "36.8167",
    "city": "Nairobi",
    "country": "Kenya",
    "temp": 75,
    "feels_like": 75,
    "humidity": 58,
    "wind_speed": 3,
    "desc": "partly cloudy"
  },
  {
    "id": 174,
    "source": "Weatherbit",
    "lat": "-1.2833",
    "lon": "36.8167",
    "city": "Nairobi",
    "country": "KE",
    "temp": 78.8,
    "feels_like": 78.5,
    "humidity": 47,
    "wind_speed": 11.4,
    "desc": "Clear sky"
  },
  {
    "id": 175,
    "source": "OpenWeatherAPI",
    "lat": "1.3272",
    "lon": "172.9813",
    "city": "Tarawa",
    "country": "KI",
    "temp": 80.67,
    "feels_like": 88.32,
    "humidity": 94,
    "wind_speed": 3.44,
    "desc": "light rain"
  },
  {
    "id": 176,
    "source": "Foreca",
    "lat": "1.3272",
    "lon": "172.9813",
    "city": "Tarawa",
    "country": "Kiribati",
    "temp": 81,
    "feels_like": 86,
    "humidity": 85,
    "wind_speed": 3,
    "desc": "light rain"
  },
  {
    "id": 177,
    "source": "Weatherbit",
    "lat": "1.3272",
    "lon": "172.9813",
    "city": "Tarawa",
    "country": "KI",
    "temp": 80.6,
    "feels_like": 88.1,
    "humidity": 94,
    "wind_speed": 3.4,
    "desc": "Light rain"
  },
  {
    "id": 178,
    "source": "OpenWeatherAPI",
    "lat": "29.3697",
    "lon": "47.9783",
    "city": "Kuwait City",
    "country": "KW",
    "temp": 81.88,
    "feels_like": 81.46,
    "humidity": 41,
    "wind_speed": 9.57,
    "desc": "clear sky"
  },
  {
    "id": 179,
    "source": "Foreca",
    "lat": "29.3697",
    "lon": "47.9783",
    "city": "Kuwait City",
    "country": "Kuwait",
    "temp": 84,
    "feels_like": 84,
    "humidity": 40,
    "wind_speed": 4,
    "desc": "clear"
  },
  {
    "id": 180,
    "source": "Weatherbit",
    "lat": "29.3697",
    "lon": "47.9783",
    "city": "Kuwait City",
    "country": "KW",
    "temp": 86.2,
    "feels_like": 82.9,
    "humidity": 18,
    "wind_speed": 6.9,
    "desc": "Clear sky"
  },
  {
    "id": 181,
    "source": "OpenWeatherAPI",
    "lat": "56.9460",
    "lon": "24.1059",
    "city": "Vecrīga",
    "country": "LV",
    "temp": 58.3,
    "feels_like": 57.11,
    "humidity": 70,
    "wind_speed": 3.44,
    "desc": "broken clouds"
  },
  {
    "id": 182,
    "source": "Foreca",
    "lat": "56.9460",
    "lon": "24.1059",
    "city": "Riga",
    "country": "Latvia",
    "temp": 55,
    "feels_like": 55,
    "humidity": 85,
    "wind_speed": 5,
    "desc": "overcast"
  },
  {
    "id": 183,
    "source": "Weatherbit",
    "lat": "56.9460",
    "lon": "24.1059",
    "city": "Riga",
    "country": "LV",
    "temp": 60,
    "feels_like": 60,
    "humidity": 74,
    "wind_speed": 5.7,
    "desc": "Broken clouds"
  },
  {
    "id": 184,
    "source": "OpenWeatherAPI",
    "lat": "33.9000",
    "lon": "35.4833",
    "city": "Ra’s Bayrūt",
    "country": "LB",
    "temp": 71.64,
    "feels_like": 71.42,
    "humidity": 62,
    "wind_speed": 8.72,
    "desc": "clear sky"
  },
  {
    "id": 185,
    "source": "Foreca",
    "lat": "33.9000",
    "lon": "35.4833",
    "city": "Ra’s Bayrūt",
    "country": "Lebanon",
    "temp": 78,
    "feels_like": 78,
    "humidity": 71,
    "wind_speed": 3,
    "desc": "clear"
  },
  {
    "id": 186,
    "source": "Weatherbit",
    "lat": "33.9000",
    "lon": "35.4833",
    "city": "Ra’s Bayrūt",
    "country": "LB",
    "temp": 78.6,
    "feels_like": 78.1,
    "humidity": 41,
    "wind_speed": 6.9,
    "desc": "Clear sky"
  },
  {
    "id": 187,
    "source": "OpenWeatherAPI",
    "lat": "6.3005",
    "lon": "-10.7969",
    "city": "Monrovia",
    "country": "LR",
    "temp": 92.97,
    "feels_like": 105.57,
    "humidity": 71,
    "wind_speed": 12.95,
    "desc": "broken clouds"
  },
  {
    "id": 188,
    "source": "Foreca",
    "lat": "6.3005",
    "lon": "-10.7969",
    "city": "Monrovia",
    "country": "Liberia",
    "temp": 90,
    "feels_like": 105,
    "humidity": 70,
    "wind_speed": 4,
    "desc": "light rain"
  },
  {
    "id": 189,
    "source": "Weatherbit",
    "lat": "6.3005",
    "lon": "-10.7969",
    "city": "Monrovia",
    "country": "LR",
    "temp": 89.7,
    "feels_like": 99.4,
    "humidity": 61,
    "wind_speed": 10.9,
    "desc": "Clear sky"
  },
  {
    "id": 190,
    "source": "OpenWeatherAPI",
    "lat": "32.8752",
    "lon": "13.1875",
    "city": "Tripoli",
    "country": "LY",
    "temp": 66.47,
    "feels_like": 65.64,
    "humidity": 60,
    "wind_speed": 13.8,
    "desc": "clear sky"
  },
  {
    "id": 191,
    "source": "Foreca",
    "lat": "32.8752",
    "lon": "13.1875",
    "city": "Tripoli",
    "country": "Libya",
    "temp": 67,
    "feels_like": 67,
    "humidity": 65,
    "wind_speed": 5,
    "desc": "clear"
  },
  {
    "id": 192,
    "source": "Weatherbit",
    "lat": "32.8752",
    "lon": "13.1875",
    "city": "Tripoli",
    "country": "LY",
    "temp": 67.6,
    "feels_like": 66.9,
    "humidity": 61,
    "wind_speed": 9.1,
    "desc": "Clear sky"
  },
  {
    "id": 193,
    "source": "OpenWeatherAPI",
    "lat": "47.1415",
    "lon": "9.5215",
    "city": "Vaduz",
    "country": "LI",
    "temp": 57.83,
    "feels_like": 56.17,
    "humidity": 61,
    "wind_speed": 3,
    "desc": "scattered clouds"
  },
  {
    "id": 194,
    "source": "Foreca",
    "lat": "47.1415",
    "lon": "9.5215",
    "city": "Vaduz",
    "country": "Liechtenstein",
    "temp": 54,
    "feels_like": 54,
    "humidity": 52,
    "wind_speed": 1,
    "desc": "cloudy"
  },
  {
    "id": 195,
    "source": "Weatherbit",
    "lat": "47.1415",
    "lon": "9.5215",
    "city": "Vaduz",
    "country": "LI",
    "temp": 57.4,
    "feels_like": 57.4,
    "humidity": 40,
    "wind_speed": 5.7,
    "desc": "Scattered clouds"
  },
  {
    "id": 196,
    "source": "OpenWeatherAPI",
    "lat": "54.6892",
    "lon": "25.2798",
    "city": "Vilnius",
    "country": "LT",
    "temp": 54.48,
    "feels_like": 53.2,
    "humidity": 76,
    "wind_speed": 16.11,
    "desc": "overcast clouds"
  },
  {
    "id": 197,
    "source": "Foreca",
    "lat": "54.6892",
    "lon": "25.2798",
    "city": "Vilnius",
    "country": "Lithuania",
    "temp": 51,
    "feels_like": 51,
    "humidity": 77,
    "wind_speed": 7,
    "desc": "overcast"
  },
  {
    "id": 198,
    "source": "Weatherbit",
    "lat": "54.6892",
    "lon": "25.2798",
    "city": "Vilnius",
    "country": "LT",
    "temp": 53.6,
    "feels_like": 53.5,
    "humidity": 76,
    "wind_speed": 16.1,
    "desc": "Overcast clouds"
  },
  {
    "id": 199,
    "source": "OpenWeatherAPI",
    "lat": "49.6117",
    "lon": "6.1300",
    "city": "Luxembourg",
    "country": "LU",
    "temp": 55.27,
    "feels_like": 53.19,
    "humidity": 57,
    "wind_speed": 19.57,
    "desc": "scattered clouds"
  },
  {
    "id": 200,
    "source": "Foreca",
    "lat": "49.6117",
    "lon": "6.1300",
    "city": "Luxembourg",
    "country": "Luxembourg",
    "temp": 55,
    "feels_like": 55,
    "humidity": 55,
    "wind_speed": 9,
    "desc": "cloudy"
  },
  {
    "id": 201,
    "source": "Weatherbit",
    "lat": "49.6117",
    "lon": "6.1300",
    "city": "Luxembourg",
    "country": "LU",
    "temp": 53.6,
    "feels_like": 53.5,
    "humidity": 54,
    "wind_speed": 19.7,
    "desc": "Broken clouds"
  },
  {
    "id": 202,
    "source": "OpenWeatherAPI",
    "lat": "-18.9137",
    "lon": "47.5361",
    "city": "Antananarivo",
    "country": "MG",
    "temp": 71.56,
    "feels_like": 71.62,
    "humidity": 68,
    "wind_speed": 2.3,
    "desc": "scattered clouds"
  },
  {
    "id": 203,
    "source": "Foreca",
    "lat": "-18.9137",
    "lon": "47.5361",
    "city": "Antananarivo",
    "country": "Madagascar",
    "temp": 70,
    "feels_like": 70,
    "humidity": 80,
    "wind_speed": 4,
    "desc": "cloudy"
  },
  {
    "id": 204,
    "source": "Weatherbit",
    "lat": "-18.9137",
    "lon": "47.5361",
    "city": "Antananarivo",
    "country": "MG",
    "temp": 71.6,
    "feels_like": 71.7,
    "humidity": 68,
    "wind_speed": 2.2,
    "desc": "Clear sky"
  },
  {
    "id": 205,
    "source": "OpenWeatherAPI",
    "lat": "-13.9669",
    "lon": "33.7873",
    "city": "Lilongwe",
    "country": "MW",
    "temp": 80.8,
    "feels_like": 82.4,
    "humidity": 57,
    "wind_speed": 4.61,
    "desc": "light rain"
  },
  {
    "id": 206,
    "source": "Foreca",
    "lat": "-13.9669",
    "lon": "33.7873",
    "city": "Lilongwe",
    "country": "Malawi",
    "temp": 80,
    "feels_like": 82,
    "humidity": 61,
    "wind_speed": 3,
    "desc": "mostly clear"
  },
  {
    "id": 207,
    "source": "Weatherbit",
    "lat": "-13.9669",
    "lon": "33.7873",
    "city": "Lilongwe",
    "country": "MW",
    "temp": 78.8,
    "feels_like": 79.1,
    "humidity": 57,
    "wind_speed": 4.6,
    "desc": "Clear sky"
  },
  {
    "id": 208,
    "source": "OpenWeatherAPI",
    "lat": "3.1412",
    "lon": "101.6865",
    "city": "Kuala Lumpur",
    "country": "MY",
    "temp": 85.03,
    "feels_like": 96.46,
    "humidity": 79,
    "wind_speed": 4.61,
    "desc": "few clouds"
  },
  {
    "id": 209,
    "source": "Foreca",
    "lat": "3.1412",
    "lon": "101.6865",
    "city": "Kuala Lumpur",
    "country": "Malaysia",
    "temp": 82,
    "feels_like": 93,
    "humidity": 89,
    "wind_speed": 1,
    "desc": "light rain"
  },
  {
    "id": 210,
    "source": "Weatherbit",
    "lat": "3.1412",
    "lon": "101.6865",
    "city": "Kuala Lumpur",
    "country": "MY",
    "temp": 86,
    "feels_like": 99.2,
    "humidity": 79,
    "wind_speed": 4.7,
    "desc": "Clear sky"
  },
  {
    "id": 211,
    "source": "OpenWeatherAPI",
    "lat": "4.1748",
    "lon": "73.5089",
    "city": "Malé",
    "country": "MV",
    "temp": 85.95,
    "feels_like": 98.55,
    "humidity": 79,
    "wind_speed": 5.75,
    "desc": "few clouds"
  },
  {
    "id": 212,
    "source": "Foreca",
    "lat": "4.1748",
    "lon": "73.5089",
    "city": "Malé",
    "country": "Maldives",
    "temp": 86,
    "feels_like": 94,
    "humidity": 68,
    "wind_speed": 2,
    "desc": "mostly clear"
  },
  {
    "id": 213,
    "source": "Weatherbit",
    "lat": "4.1748",
    "lon": "73.5089",
    "city": "Male",
    "country": "MV",
    "temp": 86,
    "feels_like": 99.2,
    "humidity": 79,
    "wind_speed": 5.8,
    "desc": "Clear sky"
  },
  {
    "id": 214,
    "source": "OpenWeatherAPI",
    "lat": "35.8997",
    "lon": "14.5147",
    "city": "Valletta",
    "country": "MT",
    "temp": 70.34,
    "feels_like": 69.39,
    "humidity": 49,
    "wind_speed": 17.27,
    "desc": "clear sky"
  },
  {
    "id": 215,
    "source": "Foreca",
    "lat": "35.8997",
    "lon": "14.5147",
    "city": "Valletta",
    "country": "Malta",
    "temp": 70,
    "feels_like": 70,
    "humidity": 64,
    "wind_speed": 8,
    "desc": "clear"
  },
  {
    "id": 216,
    "source": "Weatherbit",
    "lat": "35.8997",
    "lon": "14.5147",
    "city": "Valletta",
    "country": "MT",
    "temp": 69.8,
    "feels_like": 68.8,
    "humidity": 49,
    "wind_speed": 19.7,
    "desc": "Clear sky"
  },
  {
    "id": 217,
    "source": "OpenWeatherAPI",
    "lat": "-20.1619",
    "lon": "57.4989",
    "city": "Port Louis",
    "country": "MU",
    "temp": 78.42,
    "feels_like": 80.1,
    "humidity": 88,
    "wind_speed": 15.77,
    "desc": "moderate rain"
  },
  {
    "id": 218,
    "source": "Foreca",
    "lat": "-20.1619",
    "lon": "57.4989",
    "city": "Port Louis",
    "country": "Mauritius",
    "temp": 74,
    "feels_like": 74,
    "humidity": 88,
    "wind_speed": 10,
    "desc": "light rain"
  },
  {
    "id": 219,
    "source": "Weatherbit",
    "lat": "-20.1619",
    "lon": "57.4989",
    "city": "Port Louis",
    "country": "MU",
    "temp": 75,
    "feels_like": 76.6,
    "humidity": 93,
    "wind_speed": 12.7,
    "desc": "Moderate rain"
  },
  {
    "id": 220,
    "source": "OpenWeatherAPI",
    "lat": "19.4273",
    "lon": "-99.1419",
    "city": "Mexico City",
    "country": "MX",
    "temp": 67.66,
    "feels_like": 65.59,
    "humidity": 31,
    "wind_speed": 4.61,
    "desc": "broken clouds"
  },
  {
    "id": 221,
    "source": "Foreca",
    "lat": "19.4273",
    "lon": "-99.1419",
    "city": "Mexico City",
    "country": "Mexico",
    "temp": 67,
    "feels_like": 67,
    "humidity": 21,
    "wind_speed": 1,
    "desc": "cloudy"
  },
  {
    "id": 222,
    "source": "Weatherbit",
    "lat": "19.4273",
    "lon": "-99.1419",
    "city": "Mexico City",
    "country": "MX",
    "temp": 70,
    "feels_like": 68.9,
    "humidity": 48,
    "wind_speed": 3.4,
    "desc": "Scattered clouds"
  },
  {
    "id": 223,
    "source": "OpenWeatherAPI",
    "lat": "43.7333",
    "lon": "7.4167",
    "city": "Monaco",
    "country": "MC",
    "temp": 65.05,
    "feels_like": 64.02,
    "humidity": 59,
    "wind_speed": 17.27,
    "desc": "few clouds"
  },
  {
    "id": 224,
    "source": "Foreca",
    "lat": "43.7333",
    "lon": "7.4167",
    "city": "Monaco",
    "country": "Monaco",
    "temp": 64,
    "feels_like": 64,
    "humidity": 48,
    "wind_speed": 3,
    "desc": "clear"
  },
  {
    "id": 225,
    "source": "Weatherbit",
    "lat": "43.7333",
    "lon": "7.4167",
    "city": "Monaco",
    "country": "MC",
    "temp": 64.9,
    "feels_like": 64.9,
    "humidity": 40,
    "wind_speed": 13.8,
    "desc": "Clear sky"
  },
  {
    "id": 226,
    "source": "OpenWeatherAPI",
    "lat": "47.9077",
    "lon": "106.8832",
    "city": "Ulaanbaatar",
    "country": "MN",
    "temp": 23.13,
    "feels_like": 23.13,
    "humidity": 80,
    "wind_speed": 2.24,
    "desc": "clear sky"
  },
  {
    "id": 227,
    "source": "Foreca",
    "lat": "47.9077",
    "lon": "106.8832",
    "city": "Ulaanbaatar",
    "country": "Mongolia",
    "temp": 26,
    "feels_like": 26,
    "humidity": 58,
    "wind_speed": 1,
    "desc": "clear"
  },
  {
    "id": 228,
    "source": "Weatherbit",
    "lat": "47.9077",
    "lon": "106.8832",
    "city": "Ulan Bator",
    "country": "MN",
    "temp": 24.8,
    "feels_like": 22.5,
    "humidity": 79,
    "wind_speed": 2.2,
    "desc": "Broken clouds"
  },
  {
    "id": 229,
    "source": "OpenWeatherAPI",
    "lat": "-25.9653",
    "lon": "32.5892",
    "city": "Maputo",
    "country": "MZ",
    "temp": 82.08,
    "feels_like": 84.72,
    "humidity": 61,
    "wind_speed": 14,
    "desc": "few clouds"
  },
  {
    "id": 230,
    "source": "Foreca",
    "lat": "-25.9653",
    "lon": "32.5892",
    "city": "Maputo",
    "country": "Mozambique",
    "temp": 80,
    "feels_like": 80,
    "humidity": 78,
    "wind_speed": 4,
    "desc": "clear"
  },
  {
    "id": 231,
    "source": "Weatherbit",
    "lat": "-25.9653",
    "lon": "32.5892",
    "city": "Maputo",
    "country": "MZ",
    "temp": 82.4,
    "feels_like": 85.2,
    "humidity": 61,
    "wind_speed": 13.9,
    "desc": "Clear sky"
  },
  {
    "id": 232,
    "source": "OpenWeatherAPI",
    "lat": "-22.5594",
    "lon": "17.0832",
    "city": "Windhoek",
    "country": "NA",
    "temp": 67.26,
    "feels_like": 66.79,
    "humidity": 66,
    "wind_speed": 9.22,
    "desc": "light rain"
  },
  {
    "id": 233,
    "source": "Foreca",
    "lat": "-22.5594",
    "lon": "17.0832",
    "city": "Windhoek",
    "country": "Namibia",
    "temp": 71,
    "feels_like": 71,
    "humidity": 62,
    "wind_speed": 1,
    "desc": "light rain"
  },
  {
    "id": 234,
    "source": "Weatherbit",
    "lat": "-22.5594",
    "lon": "17.0832",
    "city": "Windhoek",
    "country": "NA",
    "temp": 66,
    "feels_like": 65,
    "humidity": 58,
    "wind_speed": 5.8,
    "desc": "Overcast clouds"
  },
  {
    "id": 235,
    "source": "OpenWeatherAPI",
    "lat": "27.7017",
    "lon": "85.3206",
    "city": "Kathmandu",
    "country": "NP",
    "temp": 70.25,
    "feels_like": 69.13,
    "humidity": 46,
    "wind_speed": 5.75,
    "desc": "few clouds"
  },
  {
    "id": 236,
    "source": "Foreca",
    "lat": "27.7017",
    "lon": "85.3206",
    "city": "Kathmandu",
    "country": "Nepal",
    "temp": 69,
    "feels_like": 70,
    "humidity": 68,
    "wind_speed": 1,
    "desc": "clear"
  },
  {
    "id": 237,
    "source": "Weatherbit",
    "lat": "27.7017",
    "lon": "85.3206",
    "city": "Kathmandu",
    "country": "NP",
    "temp": 69.8,
    "feels_like": 68.6,
    "humidity": 46,
    "wind_speed": 5.8,
    "desc": "Clear sky"
  },
  {
    "id": 238,
    "source": "OpenWeatherAPI",
    "lat": "52.3740",
    "lon": "4.8897",
    "city": "Amsterdam",
    "country": "NL",
    "temp": 52.92,
    "feels_like": 51.71,
    "humidity": 81,
    "wind_speed": 19.57,
    "desc": "broken clouds"
  },
  {
    "id": 239,
    "source": "Foreca",
    "lat": "52.3740",
    "lon": "4.8897",
    "city": "Amsterdam",
    "country": "Netherlands",
    "temp": 53,
    "feels_like": 53,
    "humidity": 74,
    "wind_speed": 9,
    "desc": "cloudy"
  },
  {
    "id": 240,
    "source": "Weatherbit",
    "lat": "52.3740",
    "lon": "4.8897",
    "city": "Amsterdam",
    "country": "NL",
    "temp": 53,
    "feels_like": 53,
    "humidity": 80,
    "wind_speed": 19.6,
    "desc": "Scattered clouds"
  },
  {
    "id": 241,
    "source": "OpenWeatherAPI",
    "lat": "-41.2866",
    "lon": "174.7756",
    "city": "Wellington",
    "country": "NZ",
    "temp": 52.02,
    "feels_like": 51.3,
    "humidity": 93,
    "wind_speed": 4.61,
    "desc": "clear sky"
  },
  {
    "id": 242,
    "source": "Foreca",
    "lat": "-41.2866",
    "lon": "174.7756",
    "city": "Wellington",
    "country": "New Zealand",
    "temp": 55,
    "feels_like": 55,
    "humidity": 91,
    "wind_speed": 3,
    "desc": "clear"
  },
  {
    "id": 243,
    "source": "Weatherbit",
    "lat": "-41.2866",
    "lon": "174.7756",
    "city": "Wellington",
    "country": "NZ",
    "temp": 51,
    "feels_like": 51,
    "humidity": 97,
    "wind_speed": 3.4,
    "desc": "Clear sky"
  },
  {
    "id": 244,
    "source": "OpenWeatherAPI",
    "lat": "59.9127",
    "lon": "10.7461",
    "city": "Oslo",
    "country": "NO",
    "temp": 39.79,
    "feels_like": 33.19,
    "humidity": 71,
    "wind_speed": 10.47,
    "desc": "overcast clouds"
  },
  {
    "id": 245,
    "source": "Foreca",
    "lat": "59.9127",
    "lon": "10.7461",
    "city": "Oslo",
    "country": "Norway",
    "temp": 39,
    "feels_like": 32,
    "humidity": 49,
    "wind_speed": 5,
    "desc": "cloudy"
  },
  {
    "id": 246,
    "source": "Weatherbit",
    "lat": "59.9127",
    "lon": "10.7461",
    "city": "Oslo",
    "country": "NO",
    "temp": 39.4,
    "feels_like": 31.8,
    "humidity": 52,
    "wind_speed": 12.7,
    "desc": "Overcast clouds"
  },
  {
    "id": 247,
    "source": "OpenWeatherAPI",
    "lat": "-12.0432",
    "lon": "-77.0282",
    "city": "Lima",
    "country": "PE",
    "temp": 73.65,
    "feels_like": 74.16,
    "humidity": 73,
    "wind_speed": 14.97,
    "desc": "few clouds"
  },
  {
    "id": 248,
    "source": "Foreca",
    "lat": "-12.0432",
    "lon": "-77.0282",
    "city": "Lima",
    "country": "Peru",
    "temp": 77,
    "feels_like": 77,
    "humidity": 70,
    "wind_speed": 4,
    "desc": "cloudy"
  },
  {
    "id": 249,
    "source": "Weatherbit",
    "lat": "-12.0432",
    "lon": "-77.0282",
    "city": "Lima",
    "country": "PE",
    "temp": 83,
    "feels_like": 87.3,
    "humidity": 66,
    "wind_speed": 9.2,
    "desc": "Clear sky"
  },
  {
    "id": 250,
    "source": "OpenWeatherAPI",
    "lat": "38.7169",
    "lon": "-9.1399",
    "city": "Socorro",
    "country": "PT",
    "temp": 58.84,
    "feels_like": 58.78,
    "humidity": 93,
    "wind_speed": 19.57,
    "desc": "light rain"
  },
  {
    "id": 251,
    "source": "Foreca",
    "lat": "38.7169",
    "lon": "-9.1399",
    "city": "Lisbon",
    "country": "Portugal",
    "temp": 58,
    "feels_like": 58,
    "humidity": 84,
    "wind_speed": 8,
    "desc": "light rain"
  },
  {
    "id": 252,
    "source": "Weatherbit",
    "lat": "38.7169",
    "lon": "-9.1399",
    "city": "Lisbon",
    "country": "PT",
    "temp": 57.2,
    "feels_like": 57.1,
    "humidity": 100,
    "wind_speed": 19.7,
    "desc": "Light rain"
  },
  {
    "id": 253,
    "source": "OpenWeatherAPI",
    "lat": "37.5683",
    "lon": "126.9778",
    "city": "Seoul",
    "country": "KR",
    "temp": 53.13,
    "feels_like": 52,
    "humidity": 82,
    "wind_speed": 1.14,
    "desc": "clear sky"
  },
  {
    "id": 254,
    "source": "Foreca",
    "lat": "37.5683",
    "lon": "126.9778",
    "city": "Seoul",
    "country": "South Korea",
    "temp": 57,
    "feels_like": 57,
    "humidity": 65,
    "wind_speed": 3,
    "desc": "cloudy"
  },
  {
    "id": 255,
    "source": "Weatherbit",
    "lat": "37.5683",
    "lon": "126.9778",
    "city": "Seoul",
    "country": "KR",
    "temp": 53.6,
    "feels_like": 53.5,
    "humidity": 81,
    "wind_speed": 1.1,
    "desc": "Clear sky"
  },
  {
    "id": 256,
    "source": "OpenWeatherAPI",
    "lat": "55.7550",
    "lon": "37.6218",
    "city": "Moscow",
    "country": "RU",
    "temp": 71.89,
    "feels_like": 71.83,
    "humidity": 65,
    "wind_speed": 9.51,
    "desc": "overcast clouds"
  },
  {
    "id": 257,
    "source": "Foreca",
    "lat": "55.7550",
    "lon": "37.6218",
    "city": "Moscow",
    "country": "Russia",
    "temp": 70,
    "feels_like": 70,
    "humidity": 63,
    "wind_speed": 5,
    "desc": "cloudy"
  },
  {
    "id": 258,
    "source": "Weatherbit",
    "lat": "55.7550",
    "lon": "37.6218",
    "city": "Moscow",
    "country": "RU",
    "temp": 71.9,
    "feels_like": 70.7,
    "humidity": 40,
    "wind_speed": 6.4,
    "desc": "Broken clouds"
  },
  {
    "id": 259,
    "source": "OpenWeatherAPI",
    "lat": "-15.9387",
    "lon": "-5.7168",
    "city": "Jamestown",
    "country": "SH",
    "temp": 72.86,
    "feels_like": 73.04,
    "humidity": 68,
    "wind_speed": 13.82,
    "desc": "scattered clouds"
  },
  {
    "id": 260,
    "source": "Foreca",
    "lat": "-15.9387",
    "lon": "-5.7168",
    "city": "Jamestown",
    "country": "Saint Helena",
    "temp": 73,
    "feels_like": 73,
    "humidity": 73,
    "wind_speed": 6,
    "desc": "light rain"
  },
  {
    "id": 261,
    "source": "Weatherbit",
    "lat": "-15.9387",
    "lon": "-5.7168",
    "city": "Jamestown",
    "country": "SH",
    "temp": 76.9,
    "feels_like": 77.6,
    "humidity": 69,
    "wind_speed": 13.8,
    "desc": "Clear sky"
  },
  {
    "id": 262,
    "source": "OpenWeatherAPI",
    "lat": "13.1587",
    "lon": "-61.2248",
    "city": "Kingstown",
    "country": "VC",
    "temp": 85.28,
    "feels_like": 93.34,
    "humidity": 70,
    "wind_speed": 12.66,
    "desc": "light rain"
  },
  {
    "id": 263,
    "source": "Foreca",
    "lat": "13.1587",
    "lon": "-61.2248",
    "city": "Kingstown",
    "country": "Saint Vincent and the Grenadines",
    "temp": 86,
    "feels_like": 96,
    "humidity": 72,
    "wind_speed": 7,
    "desc": "light rain"
  },
  {
    "id": 264,
    "source": "Weatherbit",
    "lat": "13.1587",
    "lon": "-61.2248",
    "city": "Kingstown",
    "country": "VC",
    "temp": 86,
    "feels_like": 95.1,
    "humidity": 70,
    "wind_speed": 12.7,
    "desc": "Clear sky"
  },
  {
    "id": 265,
    "source": "OpenWeatherAPI",
    "lat": "0.3365",
    "lon": "6.7273",
    "city": "São Tomé",
    "country": "ST",
    "temp": 85.32,
    "feels_like": 93.43,
    "humidity": 70,
    "wind_speed": 8.61,
    "desc": "broken clouds"
  },
  {
    "id": 266,
    "source": "Foreca",
    "lat": "0.3365",
    "lon": "6.7273",
    "city": "São Tomé",
    "country": "Sao Tome and Principe",
    "temp": 87,
    "feels_like": 100,
    "humidity": 78,
    "wind_speed": 1,
    "desc": "showers"
  },
  {
    "id": 267,
    "source": "Weatherbit",
    "lat": "0.3365",
    "lon": "6.7273",
    "city": "São Tomé",
    "country": "ST",
    "temp": 82.8,
    "feels_like": 88.1,
    "humidity": 70,
    "wind_speed": 10.8,
    "desc": "Clear sky"
  },
  {
    "id": 268,
    "source": "OpenWeatherAPI",
    "lat": "-4.6167",
    "lon": "55.4500",
    "city": "Victoria",
    "country": "SC",
    "temp": 83.46,
    "feels_like": 92.17,
    "humidity": 79,
    "wind_speed": 2.3,
    "desc": "light rain"
  },
  {
    "id": 269,
    "source": "Foreca",
    "lat": "-4.6167",
    "lon": "55.4500",
    "city": "Victoria",
    "country": "Seychelles",
    "temp": 83,
    "feels_like": 93,
    "humidity": 82,
    "wind_speed": 2,
    "desc": "showers"
  },
  {
    "id": 270,
    "source": "Weatherbit",
    "lat": "-4.6167",
    "lon": "55.4500",
    "city": "Victoria",
    "country": "SC",
    "temp": 84.2,
    "feels_like": 94.2,
    "humidity": 79,
    "wind_speed": 2.2,
    "desc": "Clear sky"
  },
  {
    "id": 271,
    "source": "OpenWeatherAPI",
    "lat": "1.2897",
    "lon": "103.8501",
    "city": "Singapore",
    "country": "SG",
    "temp": 85.37,
    "feels_like": 95.22,
    "humidity": 74,
    "wind_speed": 5.75,
    "desc": "broken clouds"
  },
  {
    "id": 272,
    "source": "Foreca",
    "lat": "1.2897",
    "lon": "103.8501",
    "city": "Singapore",
    "country": "Singapore",
    "temp": 82,
    "feels_like": 92,
    "humidity": 87,
    "wind_speed": 2,
    "desc": "cloudy"
  },
  {
    "id": 273,
    "source": "Weatherbit",
    "lat": "1.2897",
    "lon": "103.8501",
    "city": "Singapore",
    "country": "SG",
    "temp": 86,
    "feels_like": 95.1,
    "humidity": 70,
    "wind_speed": 5.8,
    "desc": "Clear sky"
  },
  {
    "id": 274,
    "source": "OpenWeatherAPI",
    "lat": "-33.9258",
    "lon": "18.4232",
    "city": "Cape Town",
    "country": "ZA",
    "temp": 70.41,
    "feels_like": 69.98,
    "humidity": 60,
    "wind_speed": 20.71,
    "desc": "few clouds"
  },
  {
    "id": 275,
    "source": "Foreca",
    "lat": "-33.9258",
    "lon": "18.4232",
    "city": "Cape Town",
    "country": "South Africa",
    "temp": 72,
    "feels_like": 72,
    "humidity": 60,
    "wind_speed": 7,
    "desc": "mostly clear"
  },
  {
    "id": 276,
    "source": "Weatherbit",
    "lat": "-33.9258",
    "lon": "18.4232",
    "city": "Cape Town",
    "country": "ZA",
    "temp": 69,
    "feels_like": 68.8,
    "humidity": 67,
    "wind_speed": 20.7,
    "desc": "Few clouds"
  },
  {
    "id": 277,
    "source": "OpenWeatherAPI",
    "lat": "40.4165",
    "lon": "-3.7026",
    "city": "Sol",
    "country": "ES",
    "temp": 56.25,
    "feels_like": 54.48,
    "humidity": 62,
    "wind_speed": 8.05,
    "desc": "few clouds"
  },
  {
    "id": 278,
    "source": "Foreca",
    "lat": "40.4165",
    "lon": "-3.7026",
    "city": "Madrid",
    "country": "Spain",
    "temp": 55,
    "feels_like": 55,
    "humidity": 61,
    "wind_speed": 2,
    "desc": "cloudy"
  },
  {
    "id": 279,
    "source": "Weatherbit",
    "lat": "40.4165",
    "lon": "-3.7026",
    "city": "Madrid",
    "country": "ES",
    "temp": 55,
    "feels_like": 55,
    "humidity": 51,
    "wind_speed": 6.3,
    "desc": "Overcast clouds"
  },
  {
    "id": 280,
    "source": "OpenWeatherAPI",
    "lat": "59.3326",
    "lon": "18.0649",
    "city": "Stockholm",
    "country": "SE",
    "temp": 30.31,
    "feels_like": 19.44,
    "humidity": 97,
    "wind_speed": 14.97,
    "desc": "snow"
  },
  {
    "id": 281,
    "source": "Foreca",
    "lat": "59.3326",
    "lon": "18.0649",
    "city": "Stockholm",
    "country": "Sweden",
    "temp": 30,
    "feels_like": 19,
    "humidity": 86,
    "wind_speed": 7,
    "desc": "snow"
  },
  {
    "id": 282,
    "source": "Weatherbit",
    "lat": "59.3326",
    "lon": "18.0649",
    "city": "Stockholm",
    "country": "SE",
    "temp": 30.2,
    "feels_like": 19.7,
    "humidity": 100,
    "wind_speed": 13.9,
    "desc": "Snow"
  },
  {
    "id": 283,
    "source": "OpenWeatherAPI",
    "lat": "50.4454",
    "lon": "30.5186",
    "city": "Pushcha-Vodytsya",
    "country": "UA",
    "temp": 68.25,
    "feels_like": 67.46,
    "humidity": 57,
    "wind_speed": 3,
    "desc": "light rain"
  },
  {
    "id": 284,
    "source": "Foreca",
    "lat": "50.4454",
    "lon": "30.5186",
    "city": "Kyiv",
    "country": "Ukraine",
    "temp": 69,
    "feels_like": 69,
    "humidity": 76,
    "wind_speed": 6,
    "desc": "partly cloudy"
  },
  {
    "id": 285,
    "source": "Weatherbit",
    "lat": "50.4454",
    "lon": "30.5186",
    "city": "Kiev",
    "country": "UA",
    "temp": 68.2,
    "feels_like": 66.9,
    "humidity": 46,
    "wind_speed": 8.1,
    "desc": "Broken clouds"
  },
  {
    "id": 286,
    "source": "OpenWeatherAPI",
    "lat": "51.5085",
    "lon": "-0.1257",
    "city": "London",
    "country": "GB",
    "temp": 56.8,
    "feels_like": 55.38,
    "humidity": 68,
    "wind_speed": 14.97,
    "desc": "scattered clouds"
  },
  {
    "id": 287,
    "source": "Foreca",
    "lat": "51.5085",
    "lon": "-0.1257",
    "city": "London",
    "country": "United Kingdom",
    "temp": 56,
    "feels_like": 56,
    "humidity": 68,
    "wind_speed": 7,
    "desc": "showers"
  },
  {
    "id": 288,
    "source": "Weatherbit",
    "lat": "51.5085",
    "lon": "-0.1257",
    "city": "London",
    "country": "GB",
    "temp": 57,
    "feels_like": 57,
    "humidity": 64,
    "wind_speed": 13.8,
    "desc": "Overcast clouds"
  },
  {
    "id": 289,
    "source": "OpenWeatherAPI",
    "lat": "38.8951",
    "lon": "-77.0364",
    "city": "Washington D.C.",
    "country": "US",
    "temp": 49.64,
    "feels_like": 45.12,
    "humidity": 91,
    "wind_speed": 11.5,
    "desc": "mist"
  },
  {
    "id": 290,
    "source": "Foreca",
    "lat": "38.8951",
    "lon": "-77.0364",
    "city": "Washington D.C.",
    "country": "United States",
    "temp": 53,
    "feels_like": 53,
    "humidity": 90,
    "wind_speed": 3,
    "desc": "overcast"
  },
  {
    "id": 291,
    "source": "Weatherbit",
    "lat": "38.8951",
    "lon": "-77.0364",
    "city": "Washington, D.C.",
    "country": "US",
    "temp": 49.5,
    "feels_like": 49.5,
    "humidity": 91,
    "wind_speed": 13,
    "desc": "Broken clouds"
  },
  {
    "id": 292,
    "source": "OpenWeatherAPI",
    "lat": "41.2647",
    "lon": "69.2163",
    "city": "Tashkent",
    "country": "UZ",
    "temp": 60.75,
    "feels_like": 58.35,
    "humidity": 39,
    "wind_speed": 4.61,
    "desc": "few clouds"
  },
  {
    "id": 293,
    "source": "Foreca",
    "lat": "41.2647",
    "lon": "69.2163",
    "city": "Tashkent",
    "country": "Uzbekistan",
    "temp": 57,
    "feels_like": 57,
    "humidity": 74,
    "wind_speed": 3,
    "desc": "light rain"
  },
  {
    "id": 294,
    "source": "Weatherbit",
    "lat": "41.2647",
    "lon": "69.2163",
    "city": "Tashkent",
    "country": "UZ",
    "temp": 60.8,
    "feels_like": 60.7,
    "humidity": 38,
    "wind_speed": 9.2,
    "desc": "Scattered clouds"
  },
  {
    "id": 295,
    "source": "OpenWeatherAPI",
    "lat": "-17.7338",
    "lon": "168.3219",
    "city": "Port-Vila",
    "country": "VU",
    "temp": 79.29,
    "feels_like": 79.29,
    "humidity": 85,
    "wind_speed": 14.56,
    "desc": "overcast clouds"
  },
  {
    "id": 296,
    "source": "Foreca",
    "lat": "-17.7338",
    "lon": "168.3219",
    "city": "Port Vila",
    "country": "Vanuatu",
    "temp": 75,
    "feels_like": 75,
    "humidity": 87,
    "wind_speed": 4,
    "desc": "cloudy"
  },
  {
    "id": 297,
    "source": "Weatherbit",
    "lat": "-17.7338",
    "lon": "168.3219",
    "city": "Port-Vila",
    "country": "VU",
    "temp": 79.1,
    "feels_like": 80.7,
    "humidity": 85,
    "wind_speed": 13.8,
    "desc": "Scattered clouds"
  },
  {
    "id": 298,
    "source": "OpenWeatherAPI",
    "lat": "-15.4134",
    "lon": "28.2771",
    "city": "Lusaka",
    "country": "ZM",
    "temp": 77.54,
    "feels_like": 77.16,
    "humidity": 46,
    "wind_speed": 6.02,
    "desc": "overcast clouds"
  },
  {
    "id": 299,
    "source": "Foreca",
    "lat": "-15.4134",
    "lon": "28.2771",
    "city": "Lusaka",
    "country": "Zambia",
    "temp": 79,
    "feels_like": 79,
    "humidity": 43,
    "wind_speed": 4,
    "desc": "mostly clear"
  },
  {
    "id": 300,
    "source": "Weatherbit",
    "lat": "-15.4134",
    "lon": "28.2771",
    "city": "Lusaka",
    "country": "ZM",
    "temp": 77.6,
    "feels_like": 77.4,
    "humidity": 49,
    "wind_speed": 5.6,
    "desc": "Clear sky"
  },
  {
    "id": 301,
    "source": "OpenWeatherAPI",
    "lat": "0",
    "lon": "0",
    "city": "Globe",
    "temp": 84.83,
    "feels_like": 93.45,
    "humidity": 73,
    "wind_speed": 6.17,
    "desc": "scattered clouds"
  }
]